[
    {
        "city": "Athens",
        "years": [
            "1896",
            "2004"
        ],
        "lat": 37.9838,
        "lon": 23.7275
    },
    {
        "city": "Paris",
        "years": [
            "1900",
            "1924"
        ],
        "lat": 48.8566,
        "lon": 2.3522
    },
    {
        "city": "St Louis",
        "years": [
            "1904"
        ],
        "lat": 38.627,
        "lon": -90.1994
    },
    {
        "city": "London",
        "years": [
            "1908",
            "1948",
            "2012"
        ],
        "lat": 51.5074,
        "lon": -0.1278
    },
    {
        "city": "Stockholm",
        "years": [
            "1912"
        ],
        "lat": 59.3293,
        "lon": 18.0686
    },
    {
        "city": "Antwerp",
        "years": [
            "1920"
        ],
        "lat": 51.26,
        "lon": 4.4028
    },
    {
        "city": "Amsterdam",
        "years": [
            "1928"
        ],
        "lat": 52.3676,
        "lon": 4.9041
    },
    {
        "city": "Los Angeles",
        "years": [
            "1932",
            "1984"
        ],
        "lat": 34.0522,
        "lon": -118.2437
    },
    {
        "city": "Berlin",
        "years": [
            "1936"
        ],
        "lat": 52.52,
        "lon": 13.405
    },
    {
        "city": "Helsinki",
        "years": [
            "1952"
        ],
        "lat": 60.1699,
        "lon": 24.9384
    },
    {
        "city": "Melbourne",
        "years": [
            "1956"
        ],
        "lat": -37.8136,
        "lon": 144.9631
    },
    {
        "city": "Rome",
        "years": [
            "1960"
        ],
        "lat": 41.9028,
        "lon": 12.4964
    },
    {
        "city": "Tokyo",
        "years": [
            "1964"
        ],
        "lat": 35.6762,
        "lon": 139.6503
    },
    {
        "city": "Mexico",
        "years": [
            "1968"
        ],
        "lat": 19.4326,
        "lon": -99.1332
    },
    {
        "city": "Munich",
        "years": [
            "1972"
        ],
        "lat": 48.1351,
        "lon": 11.582
    },
    {
        "city": "Montreal",
        "years": [
            "1976"
        ],
        "lat": 45.5017,
        "lon": -73.5673
    },
    {
        "city": "Moscow",
        "years": [
            "1980"
        ],
        "lat": 55.7558,
        "lon": 37.6173
    },
    {
        "city": "Seoul",
        "years": [
            "1988"
        ],
        "lat": 37.5665,
        "lon": 126.978
    },
    {
        "city": "Barcelona",
        "years": [
            "1992"
        ],
        "lat": 41.3874,
        "lon": 2.1686
    },
    {
        "city": "Atlanta",
        "years": [
            "1996"
        ],
        "lat": 33.749,
        "lon": -84.388
    },
    {
        "city": "Sydney",
        "years": [
            "2000"
        ],
        "lat": -33.8688,
        "lon": 151.2093
    },
    {
        "city": "Beijing",
        "years": [
            "2008"
        ],
        "lat": 39.9042,
        "lon": 116.4074
    }
]